[{"CITY": "Acton", "ABBREV_NAME": "Acton", "LAT_CENTER": "34.51011768", "LON_CENTER": "-118.1898244"}, {"CITY": "Agoura Hills", "ABBREV_NAME": "AgouraHills", "LAT_CENTER": "34.1449679167", "LON_CENTER": "-118.7606747"}, {"CITY": "Agua Dulce", "ABBREV_NAME": "AguaDulce", "LAT_CENTER": "34.490319925", "LON_CENTER": "-118.31208605"}, {"CITY": "Alhambra", "ABBREV_NAME": "Alhambra", "LAT_CENTER": "34.0864535273", "LON_CENTER": "-118.1363683545"}, {"CITY": "Alondra Park", "ABBREV_NAME": "AlondraPark", "LAT_CENTER": "33.8915506", "LON_CENTER": "-118.33564735"}, {"CITY": "Altadena", "ABBREV_NAME": "Altadena", "LAT_CENTER": "34.18661022", "LON_CENTER": "-118.13543398"}, {"CITY": "Arcadia", "ABBREV_NAME": "Arcadia", "LAT_CENTER": "34.12680887", "LON_CENTER": "-118.03859457"}, {"CITY": "Artesia", "ABBREV_NAME": "Artesia", "LAT_CENTER": "33.8658756429", "LON_CENTER": "-118.0796644286"}, {"CITY": "Avalon", "ABBREV_NAME": "Avalon", "LAT_CENTER": "33.11995785", "LON_CENTER": "-118.39444605"}, {"CITY": "Avocado Heights", "ABBREV_NAME": "AvocadoHeights", "LAT_CENTER": "34.03103608", "LON_CENTER": "-117.99753646"}, {"CITY": "Azusa", "ABBREV_NAME": "Azusa", "LAT_CENTER": "34.1372085882", "LON_CENTER": "-117.8994454"}, {"CITY": "Baldwin Park", "ABBREV_NAME": "BaldwinPark", "LAT_CENTER": "34.0791202263", "LON_CENTER": "-117.9718088211"}, {"CITY": "Bell", "ABBREV_NAME": "Bell", "LAT_CENTER": "33.9774112222", "LON_CENTER": "-118.1800708667"}, {"CITY": "Bell Gardens", "ABBREV_NAME": "BellGardens", "LAT_CENTER": "33.9661031556", "LON_CENTER": "-118.1559322444"}, {"CITY": "Bellflower", "ABBREV_NAME": "Bellflower", "LAT_CENTER": "33.888294845", "LON_CENTER": "-118.125734815"}, {"CITY": "Beverly Hills", "ABBREV_NAME": "BeverlyHills", "LAT_CENTER": "34.0777891833", "LON_CENTER": "-118.402454725"}, {"CITY": "Bradbury", "ABBREV_NAME": "Bradbury", "LAT_CENTER": "34.1531592", "LON_CENTER": "-117.9688184"}, {"CITY": "Burbank (Los Angeles County)", "ABBREV_NAME": "Burbank(LosAngelesCounty)", "LAT_CENTER": "34.182214352", "LON_CENTER": "-118.328047388"}, {"CITY": "Calabasas", "ABBREV_NAME": "Calabasas", "LAT_CENTER": "34.1340067", "LON_CENTER": "-118.6680205375"}, {"CITY": "Carson", "ABBREV_NAME": "Carson", "LAT_CENTER": "33.836920024", "LON_CENTER": "-118.256622756"}, {"CITY": "Castaic", "ABBREV_NAME": "Castaic", "LAT_CENTER": "34.51781844", "LON_CENTER": "-118.64468764"}, {"CITY": "Cerritos", "ABBREV_NAME": "Cerritos", "LAT_CENTER": "33.8704060571", "LON_CENTER": "-118.06764115"}, {"CITY": "Charter Oak", "ABBREV_NAME": "CharterOak", "LAT_CENTER": "34.0975809", "LON_CENTER": "-117.85869156"}, {"CITY": "Citrus", "ABBREV_NAME": "Citrus", "LAT_CENTER": "34.117943475", "LON_CENTER": "-117.8837785375"}, {"CITY": "Claremont", "ABBREV_NAME": "Claremont", "LAT_CENTER": "34.1129848222", "LON_CENTER": "-117.7243372333"}, {"CITY": "Commerce", "ABBREV_NAME": "Commerce", "LAT_CENTER": "34.0006422778", "LON_CENTER": "-118.1588593778"}, {"CITY": "Compton", "ABBREV_NAME": "Compton", "LAT_CENTER": "33.8954272", "LON_CENTER": "-118.22308113"}, {"CITY": "Covina", "ABBREV_NAME": "Covina", "LAT_CENTER": "34.0914589824", "LON_CENTER": "-117.8876548706"}, {"CITY": "Cudahy", "ABBREV_NAME": "Cudahy", "LAT_CENTER": "33.96232888", "LON_CENTER": "-118.18139837"}, {"CITY": "Culver City", "ABBREV_NAME": "CulverCity", "LAT_CENTER": "34.0106750583", "LON_CENTER": "-118.3940302333"}, {"CITY": "Del Aire", "ABBREV_NAME": "DelAire", "LAT_CENTER": "33.91497165", "LON_CENTER": "-118.3676718"}, {"CITY": "Desert View Highlands", "ABBREV_NAME": "DesertViewHighlands", "LAT_CENTER": "34.58610195", "LON_CENTER": "-118.1545051"}, {"CITY": "Diamond Bar", "ABBREV_NAME": "DiamondBar", "LAT_CENTER": "33.9975795214", "LON_CENTER": "-117.8271258929"}, {"CITY": "Downey", "ABBREV_NAME": "Downey", "LAT_CENTER": "33.936871308", "LON_CENTER": "-118.131586108"}, {"CITY": "Duarte", "ABBREV_NAME": "Duarte", "LAT_CENTER": "34.144436325", "LON_CENTER": "-117.9632972"}, {"CITY": "East Los Angeles", "ABBREV_NAME": "EastLosAngeles", "LAT_CENTER": "34.0319990967", "LON_CENTER": "-118.1679007567"}, {"CITY": "East Pasadena", "ABBREV_NAME": "EastPasadena", "LAT_CENTER": "34.13851485", "LON_CENTER": "-118.07500455"}, {"CITY": "East Rancho Dominguez", "ABBREV_NAME": "EastRanchoDominguez", "LAT_CENTER": "33.8987049286", "LON_CENTER": "-118.1946208"}, {"CITY": "East San Gabriel", "ABBREV_NAME": "EastSanGabriel", "LAT_CENTER": "34.12259286", "LON_CENTER": "-118.07826536"}, {"CITY": "East Whittier", "ABBREV_NAME": "EastWhittier", "LAT_CENTER": "33.92480415", "LON_CENTER": "-117.9897312"}, {"CITY": "El Monte", "ABBREV_NAME": "ElMonte", "LAT_CENTER": "34.0729081606", "LON_CENTER": "-118.0314634424"}, {"CITY": "El Segundo", "ABBREV_NAME": "ElSegundo", "LAT_CENTER": "33.9192642429", "LON_CENTER": "-118.4194851429"}, {"CITY": "Elizabeth Lake", "ABBREV_NAME": "ElizabethLake", "LAT_CENTER": "34.6473660667", "LON_CENTER": "-118.4309899667"}, {"CITY": "Florence-Graham", "ABBREV_NAME": "Florence-Graham", "LAT_CENTER": "33.9696064538", "LON_CENTER": "-118.2448245"}, {"CITY": "Gardena", "ABBREV_NAME": "Gardena", "LAT_CENTER": "33.8888667875", "LON_CENTER": "-118.3065488688"}, {"CITY": "Glendale", "ABBREV_NAME": "Glendale", "LAT_CENTER": "34.1656519609", "LON_CENTER": "-118.249047937"}, {"CITY": "Glendora", "ABBREV_NAME": "Glendora", "LAT_CENTER": "34.1307230882", "LON_CENTER": "-117.8579916529"}, {"CITY": "Green Valley (Los Angeles County)", "ABBREV_NAME": "GreenValley(LosAngelesCounty)", "LAT_CENTER": "34.61289225", "LON_CENTER": "-118.47475885"}, {"CITY": "Hacienda Heights", "ABBREV_NAME": "HaciendaHeights", "LAT_CENTER": "33.990514845", "LON_CENTER": "-117.96453411"}, {"CITY": "Hasley Canyon", "ABBREV_NAME": "HasleyCanyon", "LAT_CENTER": "34.485312625", "LON_CENTER": "-118.6686111"}, {"CITY": "Hawaiian Gardens", "ABBREV_NAME": "HawaiianGardens", "LAT_CENTER": "33.82991576", "LON_CENTER": "-118.07164248"}, {"CITY": "Hawthorne", "ABBREV_NAME": "Hawthorne", "LAT_CENTER": "33.913502868", "LON_CENTER": "-118.346239792"}, {"CITY": "Hermosa Beach", "ABBREV_NAME": "HermosaBeach", "LAT_CENTER": "33.86547062", "LON_CENTER": "-118.39758322"}, {"CITY": "Hidden Hills", "ABBREV_NAME": "HiddenHills", "LAT_CENTER": "34.16378175", "LON_CENTER": "-118.65550975"}, {"CITY": "Huntington Park", "ABBREV_NAME": "HuntingtonPark", "LAT_CENTER": "33.9811784381", "LON_CENTER": "-118.2165482048"}, {"CITY": "Industry", "ABBREV_NAME": "Industry", "LAT_CENTER": "34.0278596857", "LON_CENTER": "-117.9593031619"}, {"CITY": "Inglewood", "ABBREV_NAME": "Inglewood", "LAT_CENTER": "33.9522544029", "LON_CENTER": "-118.34550255"}, {"CITY": "Irwindale", "ABBREV_NAME": "Irwindale", "LAT_CENTER": "34.1001267333", "LON_CENTER": "-117.9501102"}, {"CITY": "La Ca\u00f1ada Flintridge", "ABBREV_NAME": "LaCanadaFlintridge", "LAT_CENTER": "34.2104488727", "LON_CENTER": "-118.2113006091"}, {"CITY": "La Crescenta-Montrose", "ABBREV_NAME": "LaCrescenta-Montrose", "LAT_CENTER": "34.22612272", "LON_CENTER": "-118.2310871"}, {"CITY": "La Habra Heights", "ABBREV_NAME": "LaHabraHeights", "LAT_CENTER": "33.9709131857", "LON_CENTER": "-117.9461563714"}, {"CITY": "La Mirada", "ABBREV_NAME": "LaMirada", "LAT_CENTER": "33.9057334273", "LON_CENTER": "-118.0069548818"}, {"CITY": "La Puente", "ABBREV_NAME": "LaPuente", "LAT_CENTER": "34.0396297929", "LON_CENTER": "-117.9597637"}, {"CITY": "La Verne", "ABBREV_NAME": "LaVerne", "LAT_CENTER": "34.11541124", "LON_CENTER": "-117.77378498"}, {"CITY": "Ladera Heights", "ABBREV_NAME": "LaderaHeights", "LAT_CENTER": "34.002343125", "LON_CENTER": "-118.37576035"}, {"CITY": "Lake Hughes", "ABBREV_NAME": "LakeHughes", "LAT_CENTER": "34.68938425", "LON_CENTER": "-118.58640145"}, {"CITY": "Lake Los Angeles", "ABBREV_NAME": "LakeLosAngeles", "LAT_CENTER": "34.6349885667", "LON_CENTER": "-117.8146715"}, {"CITY": "Lakewood", "ABBREV_NAME": "Lakewood", "LAT_CENTER": "33.8473883042", "LON_CENTER": "-118.1247593583"}, {"CITY": "Lancaster", "ABBREV_NAME": "Lancaster", "LAT_CENTER": "34.6859211057", "LON_CENTER": "-118.1496937086"}, {"CITY": "Lawndale", "ABBREV_NAME": "Lawndale", "LAT_CENTER": "33.8846241", "LON_CENTER": "-118.3521732714"}, {"CITY": "Lennox", "ABBREV_NAME": "Lennox", "LAT_CENTER": "33.9395661167", "LON_CENTER": "-118.3569131833"}, {"CITY": "Leona Valley", "ABBREV_NAME": "LeonaValley", "LAT_CENTER": "34.60603525", "LON_CENTER": "-118.28414055"}, {"CITY": "Littlerock", "ABBREV_NAME": "Littlerock", "LAT_CENTER": "34.5243419", "LON_CENTER": "-117.9038415333"}, {"CITY": "Lomita", "ABBREV_NAME": "Lomita", "LAT_CENTER": "33.7857453167", "LON_CENTER": "-118.3117692333"}, {"CITY": "Long Beach", "ABBREV_NAME": "LongBeach", "LAT_CENTER": "33.8055066082", "LON_CENTER": "-118.1679044984"}, {"CITY": "Los Angeles", "ABBREV_NAME": "LosAngeles", "LAT_CENTER": "34.0903832238", "LON_CENTER": "-118.3664567727"}, {"CITY": "Lynwood", "ABBREV_NAME": "Lynwood", "LAT_CENTER": "33.9237149429", "LON_CENTER": "-118.2042790071"}, {"CITY": "Malibu", "ABBREV_NAME": "Malibu", "LAT_CENTER": "34.04951162", "LON_CENTER": "-118.73500246"}, {"CITY": "Manhattan Beach", "ABBREV_NAME": "ManhattanBeach", "LAT_CENTER": "33.890589575", "LON_CENTER": "-118.4038159625"}, {"CITY": "Marina del Rey", "ABBREV_NAME": "MarinadelRey", "LAT_CENTER": "33.97674555", "LON_CENTER": "-118.4569711"}, {"CITY": "Mayflower Village", "ABBREV_NAME": "MayflowerVillage", "LAT_CENTER": "34.11838625", "LON_CENTER": "-118.0086621"}, {"CITY": "Maywood", "ABBREV_NAME": "Maywood", "LAT_CENTER": "33.9851867", "LON_CENTER": "-118.1842343636"}, {"CITY": "Monrovia", "ABBREV_NAME": "Monrovia", "LAT_CENTER": "34.1406377273", "LON_CENTER": "-117.9987595727"}, {"CITY": "Montebello", "ABBREV_NAME": "Montebello", "LAT_CENTER": "34.0153688158", "LON_CENTER": "-118.1173638842"}, {"CITY": "Monterey Park", "ABBREV_NAME": "MontereyPark", "LAT_CENTER": "34.0532887933", "LON_CENTER": "-118.1304169067"}, {"CITY": "North El Monte", "ABBREV_NAME": "NorthElMonte", "LAT_CENTER": "34.1024524", "LON_CENTER": "-118.0204"}, {"CITY": "Norwalk", "ABBREV_NAME": "Norwalk", "LAT_CENTER": "33.90754", "LON_CENTER": "-118.0816387455"}, {"CITY": "Palmdale", "ABBREV_NAME": "Palmdale", "LAT_CENTER": "34.5780769214", "LON_CENTER": "-118.106953519"}, {"CITY": "Palos Verdes Estates", "ABBREV_NAME": "PalosVerdesEstates", "LAT_CENTER": "33.78602805", "LON_CENTER": "-118.39609735"}, {"CITY": "Paramount", "ABBREV_NAME": "Paramount", "LAT_CENTER": "33.8984587562", "LON_CENTER": "-118.1710868438"}, {"CITY": "Pasadena", "ABBREV_NAME": "Pasadena", "LAT_CENTER": "34.1553623581", "LON_CENTER": "-118.1381966233"}, {"CITY": "Pico Rivera", "ABBREV_NAME": "PicoRivera", "LAT_CENTER": "33.9910224545", "LON_CENTER": "-118.08362885"}, {"CITY": "Pomona", "ABBREV_NAME": "Pomona", "LAT_CENTER": "34.0591445324", "LON_CENTER": "-117.7644706811"}, {"CITY": "Quartz Hill", "ABBREV_NAME": "QuartzHill", "LAT_CENTER": "34.65536166", "LON_CENTER": "-118.20819094"}, {"CITY": "Rancho Palos Verdes", "ABBREV_NAME": "RanchoPalosVerdes", "LAT_CENTER": "33.7647137182", "LON_CENTER": "-118.3688122273"}, {"CITY": "Redondo Beach", "ABBREV_NAME": "RedondoBeach", "LAT_CENTER": "33.8548175786", "LON_CENTER": "-118.3777652643"}, {"CITY": "Rolling Hills (Los Angeles County)", "ABBREV_NAME": "RollingHills(LosAngelesCounty)", "LAT_CENTER": "33.7600135", "LON_CENTER": "-118.3471629"}, {"CITY": "Rolling Hills Estates", "ABBREV_NAME": "RollingHillsEstates", "LAT_CENTER": "33.771623325", "LON_CENTER": "-118.3598471125"}, {"CITY": "Rose Hills", "ABBREV_NAME": "RoseHills", "LAT_CENTER": "34.0142722", "LON_CENTER": "-118.039504"}, {"CITY": "Rosemead", "ABBREV_NAME": "Rosemead", "LAT_CENTER": "34.0638737", "LON_CENTER": "-118.0848762611"}, {"CITY": "Rowland Heights", "ABBREV_NAME": "RowlandHeights", "LAT_CENTER": "33.98105655", "LON_CENTER": "-117.8946780714"}, {"CITY": "San Dimas", "ABBREV_NAME": "SanDimas", "LAT_CENTER": "34.1071060364", "LON_CENTER": "-117.8160157727"}, {"CITY": "San Fernando", "ABBREV_NAME": "SanFernando", "LAT_CENTER": "34.288194875", "LON_CENTER": "-118.4368488"}, {"CITY": "San Gabriel", "ABBREV_NAME": "SanGabriel", "LAT_CENTER": "34.0990901786", "LON_CENTER": "-118.0992363929"}, {"CITY": "San Marino", "ABBREV_NAME": "SanMarino", "LAT_CENTER": "34.1236786", "LON_CENTER": "-118.1189868"}, {"CITY": "San Pasqual", "ABBREV_NAME": "SanPasqual", "LAT_CENTER": "34.1392184", "LON_CENTER": "-118.102517"}, {"CITY": "Santa Clarita", "ABBREV_NAME": "SantaClarita", "LAT_CENTER": "34.4291766185", "LON_CENTER": "-118.5001003241"}, {"CITY": "Santa Fe Springs", "ABBREV_NAME": "SantaFeSprings", "LAT_CENTER": "33.9407001231", "LON_CENTER": "-118.0654444154"}, {"CITY": "Santa Monica", "ABBREV_NAME": "SantaMonica", "LAT_CENTER": "34.0169564", "LON_CENTER": "-118.4827584762"}, {"CITY": "Sierra Madre", "ABBREV_NAME": "SierraMadre", "LAT_CENTER": "34.1684533", "LON_CENTER": "-118.05481705"}, {"CITY": "Signal Hill", "ABBREV_NAME": "SignalHill", "LAT_CENTER": "33.8065499167", "LON_CENTER": "-118.1667201667"}, {"CITY": "South El Monte", "ABBREV_NAME": "SouthElMonte", "LAT_CENTER": "34.0533535538", "LON_CENTER": "-118.0463442615"}, {"CITY": "South Gate", "ABBREV_NAME": "SouthGate", "LAT_CENTER": "33.948297555", "LON_CENTER": "-118.203729035"}, {"CITY": "South Monrovia Island", "ABBREV_NAME": "SouthMonroviaIsland", "LAT_CENTER": "34.1297319", "LON_CENTER": "-117.9963314"}, {"CITY": "South Pasadena", "ABBREV_NAME": "SouthPasadena", "LAT_CENTER": "34.110529475", "LON_CENTER": "-118.155083425"}, {"CITY": "South San Gabriel", "ABBREV_NAME": "SouthSanGabriel", "LAT_CENTER": "34.0466887333", "LON_CENTER": "-118.0913870667"}, {"CITY": "South San Jose Hills", "ABBREV_NAME": "SouthSanJoseHills", "LAT_CENTER": "34.0116305286", "LON_CENTER": "-117.9037542429"}, {"CITY": "South Whittier", "ABBREV_NAME": "SouthWhittier", "LAT_CENTER": "33.9338540385", "LON_CENTER": "-118.0323136385"}, {"CITY": "Stevenson Ranch", "ABBREV_NAME": "StevensonRanch", "LAT_CENTER": "34.3841522333", "LON_CENTER": "-118.6021758667"}, {"CITY": "Sun Village", "ABBREV_NAME": "SunVillage", "LAT_CENTER": "34.571990025", "LON_CENTER": "-117.96508125"}, {"CITY": "Temple City", "ABBREV_NAME": "TempleCity", "LAT_CENTER": "34.1043810417", "LON_CENTER": "-118.0596565667"}, {"CITY": "Topanga", "ABBREV_NAME": "Topanga", "LAT_CENTER": "34.0908323333", "LON_CENTER": "-118.6171008333"}, {"CITY": "Torrance", "ABBREV_NAME": "Torrance", "LAT_CENTER": "33.8391278857", "LON_CENTER": "-118.34365358"}, {"CITY": "Val Verde", "ABBREV_NAME": "ValVerde", "LAT_CENTER": "34.4444857", "LON_CENTER": "-118.6737987"}, {"CITY": "Valinda", "ABBREV_NAME": "Valinda", "LAT_CENTER": "34.0426803", "LON_CENTER": "-117.929177775"}, {"CITY": "Vernon", "ABBREV_NAME": "Vernon", "LAT_CENTER": "34.0044516143", "LON_CENTER": "-118.1985108286"}, {"CITY": "View Park-Windsor Hills", "ABBREV_NAME": "ViewPark-WindsorHills", "LAT_CENTER": "33.9958345", "LON_CENTER": "-118.347391"}, {"CITY": "Vincent", "ABBREV_NAME": "Vincent", "LAT_CENTER": "34.0958037625", "LON_CENTER": "-117.9222340125"}, {"CITY": "Walnut", "ABBREV_NAME": "Walnut", "LAT_CENTER": "34.0366949182", "LON_CENTER": "-117.8497707364"}, {"CITY": "Walnut Park", "ABBREV_NAME": "WalnutPark", "LAT_CENTER": "33.96798635", "LON_CENTER": "-118.222302125"}, {"CITY": "West Athens", "ABBREV_NAME": "WestAthens", "LAT_CENTER": "33.9235558667", "LON_CENTER": "-118.3055471333"}, {"CITY": "West Carson", "ABBREV_NAME": "WestCarson", "LAT_CENTER": "33.8239532", "LON_CENTER": "-118.292970275"}, {"CITY": "West Covina", "ABBREV_NAME": "WestCovina", "LAT_CENTER": "34.0525409545", "LON_CENTER": "-117.914439697"}, {"CITY": "West Hollywood", "ABBREV_NAME": "WestHollywood", "LAT_CENTER": "34.0893452143", "LON_CENTER": "-118.3704842143"}, {"CITY": "West Puente Valley", "ABBREV_NAME": "WestPuenteValley", "LAT_CENTER": "34.0532752125", "LON_CENTER": "-117.9703032375"}, {"CITY": "West Rancho Dominguez", "ABBREV_NAME": "WestRanchoDominguez", "LAT_CENTER": "33.9055685857", "LON_CENTER": "-118.2639453143"}, {"CITY": "West Whittier-Los Nietos", "ABBREV_NAME": "WestWhittier-LosNietos", "LAT_CENTER": "33.97970995", "LON_CENTER": "-118.064388925"}, {"CITY": "Westlake Village", "ABBREV_NAME": "WestlakeVillage", "LAT_CENTER": "34.14406785", "LON_CENTER": "-118.80219795"}, {"CITY": "Westmont", "ABBREV_NAME": "Westmont", "LAT_CENTER": "33.9390516125", "LON_CENTER": "-118.3024028375"}, {"CITY": "Whittier", "ABBREV_NAME": "Whittier", "LAT_CENTER": "33.9672774188", "LON_CENTER": "-118.0281326875"}, {"CITY": "Willowbrook", "ABBREV_NAME": "Willowbrook", "LAT_CENTER": "33.91678255", "LON_CENTER": "-118.2492309625"}]