[{"CITY": "Acton", "ABBREV_NAME": "Acton", "LAT_CENTER": "34.51011594", "LON_CENTER": "-118.1898299"}, {"CITY": "Agoura Hills", "ABBREV_NAME": "AgouraHills", "LAT_CENTER": "34.1448159333", "LON_CENTER": "-118.7606784333"}, {"CITY": "Agua Dulce", "ABBREV_NAME": "AguaDulce", "LAT_CENTER": "34.490319925", "LON_CENTER": "-118.31208605"}, {"CITY": "Alhambra", "ABBREV_NAME": "Alhambra", "LAT_CENTER": "34.0865228864", "LON_CENTER": "-118.1363522318"}, {"CITY": "Alondra Park", "ABBREV_NAME": "AlondraPark", "LAT_CENTER": "33.8915506", "LON_CENTER": "-118.33564735"}, {"CITY": "Altadena", "ABBREV_NAME": "Altadena", "LAT_CENTER": "34.18689756", "LON_CENTER": "-118.13531056"}, {"CITY": "Arcadia", "ABBREV_NAME": "Arcadia", "LAT_CENTER": "34.126813955", "LON_CENTER": "-118.03859987"}, {"CITY": "Artesia", "ABBREV_NAME": "Artesia", "LAT_CENTER": "33.8658756429", "LON_CENTER": "-118.0796644286"}, {"CITY": "Avalon", "ABBREV_NAME": "Avalon", "LAT_CENTER": "33.1338651", "LON_CENTER": "-118.4139095"}, {"CITY": "Avocado Heights", "ABBREV_NAME": "AvocadoHeights", "LAT_CENTER": "34.03094076", "LON_CENTER": "-117.99729602"}, {"CITY": "Azusa", "ABBREV_NAME": "Azusa", "LAT_CENTER": "34.1371184882", "LON_CENTER": "-117.8995248529"}, {"CITY": "Baldwin Park", "ABBREV_NAME": "BaldwinPark", "LAT_CENTER": "34.0790412526", "LON_CENTER": "-117.9718082211"}, {"CITY": "Bell", "ABBREV_NAME": "Bell", "LAT_CENTER": "33.9770061", "LON_CENTER": "-118.1801830444"}, {"CITY": "Bell Gardens", "ABBREV_NAME": "BellGardens", "LAT_CENTER": "33.9661031556", "LON_CENTER": "-118.1559322444"}, {"CITY": "Bellflower", "ABBREV_NAME": "Bellflower", "LAT_CENTER": "33.88829503", "LON_CENTER": "-118.12573484"}, {"CITY": "Beverly Hills", "ABBREV_NAME": "BeverlyHills", "LAT_CENTER": "34.0777009417", "LON_CENTER": "-118.4025044417"}, {"CITY": "Bradbury", "ABBREV_NAME": "Bradbury", "LAT_CENTER": "34.1531592", "LON_CENTER": "-117.9688184"}, {"CITY": "Burbank (Los Angeles County)", "ABBREV_NAME": "Burbank(LosAngelesCounty)", "LAT_CENTER": "34.182151592", "LON_CENTER": "-118.328025524"}, {"CITY": "Calabasas", "ABBREV_NAME": "Calabasas", "LAT_CENTER": "34.1339821125", "LON_CENTER": "-118.6681373625"}, {"CITY": "Carson", "ABBREV_NAME": "Carson", "LAT_CENTER": "33.837068116", "LON_CENTER": "-118.256527256"}, {"CITY": "Castaic", "ABBREV_NAME": "Castaic", "LAT_CENTER": "34.52178764", "LON_CENTER": "-118.64689598"}, {"CITY": "Cerritos", "ABBREV_NAME": "Cerritos", "LAT_CENTER": "33.8702563786", "LON_CENTER": "-118.0675272929"}, {"CITY": "Charter Oak", "ABBREV_NAME": "CharterOak", "LAT_CENTER": "34.0975991", "LON_CENTER": "-117.85868362"}, {"CITY": "Citrus", "ABBREV_NAME": "Citrus", "LAT_CENTER": "34.117943575", "LON_CENTER": "-117.8837784625"}, {"CITY": "Claremont", "ABBREV_NAME": "Claremont", "LAT_CENTER": "34.1123689222", "LON_CENTER": "-117.7250143111"}, {"CITY": "Commerce", "ABBREV_NAME": "Commerce", "LAT_CENTER": "34.0007609556", "LON_CENTER": "-118.1588696778"}, {"CITY": "Compton", "ABBREV_NAME": "Compton", "LAT_CENTER": "33.89538702", "LON_CENTER": "-118.2230387433"}, {"CITY": "Covina", "ABBREV_NAME": "Covina", "LAT_CENTER": "34.0914644353", "LON_CENTER": "-117.8876524353"}, {"CITY": "Cudahy", "ABBREV_NAME": "Cudahy", "LAT_CENTER": "33.96185746", "LON_CENTER": "-118.18149005"}, {"CITY": "Culver City", "ABBREV_NAME": "CulverCity", "LAT_CENTER": "34.0105756333", "LON_CENTER": "-118.39411705"}, {"CITY": "Del Aire", "ABBREV_NAME": "DelAire", "LAT_CENTER": "33.91429965", "LON_CENTER": "-118.367798"}, {"CITY": "Desert View Highlands", "ABBREV_NAME": "DesertViewHighlands", "LAT_CENTER": "34.58568095", "LON_CENTER": "-118.15467475"}, {"CITY": "Diamond Bar", "ABBREV_NAME": "DiamondBar", "LAT_CENTER": "33.9976045929", "LON_CENTER": "-117.8270949571"}, {"CITY": "Downey", "ABBREV_NAME": "Downey", "LAT_CENTER": "33.936900136", "LON_CENTER": "-118.131646288"}, {"CITY": "Duarte", "ABBREV_NAME": "Duarte", "LAT_CENTER": "34.1444317", "LON_CENTER": "-117.963302725"}, {"CITY": "East Los Angeles", "ABBREV_NAME": "EastLosAngeles", "LAT_CENTER": "34.0319976733", "LON_CENTER": "-118.16789914"}, {"CITY": "East Pasadena", "ABBREV_NAME": "EastPasadena", "LAT_CENTER": "34.13851485", "LON_CENTER": "-118.07500455"}, {"CITY": "East Rancho Dominguez", "ABBREV_NAME": "EastRanchoDominguez", "LAT_CENTER": "33.8985498286", "LON_CENTER": "-118.1946235857"}, {"CITY": "East San Gabriel", "ABBREV_NAME": "EastSanGabriel", "LAT_CENTER": "34.12259664", "LON_CENTER": "-118.07826572"}, {"CITY": "East Whittier", "ABBREV_NAME": "EastWhittier", "LAT_CENTER": "33.92480415", "LON_CENTER": "-117.9897312"}, {"CITY": "El Monte", "ABBREV_NAME": "ElMonte", "LAT_CENTER": "34.0728614545", "LON_CENTER": "-118.031427403"}, {"CITY": "El Segundo", "ABBREV_NAME": "ElSegundo", "LAT_CENTER": "33.9192642429", "LON_CENTER": "-118.4194851429"}, {"CITY": "Elizabeth Lake", "ABBREV_NAME": "ElizabethLake", "LAT_CENTER": "34.6473671", "LON_CENTER": "-118.43082"}, {"CITY": "Florence-Graham", "ABBREV_NAME": "Florence-Graham", "LAT_CENTER": "33.9701169077", "LON_CENTER": "-118.2450888538"}, {"CITY": "Gardena", "ABBREV_NAME": "Gardena", "LAT_CENTER": "33.8888022375", "LON_CENTER": "-118.3066282625"}, {"CITY": "Glendale", "ABBREV_NAME": "Glendale", "LAT_CENTER": "34.1656494022", "LON_CENTER": "-118.2489992326"}, {"CITY": "Glendora", "ABBREV_NAME": "Glendora", "LAT_CENTER": "34.1307500647", "LON_CENTER": "-117.8577658706"}, {"CITY": "Green Valley (Los Angeles County)", "ABBREV_NAME": "GreenValley(LosAngelesCounty)", "LAT_CENTER": "34.61289225", "LON_CENTER": "-118.47475895"}, {"CITY": "Hacienda Heights", "ABBREV_NAME": "HaciendaHeights", "LAT_CENTER": "33.990421515", "LON_CENTER": "-117.964422425"}, {"CITY": "Hasley Canyon", "ABBREV_NAME": "HasleyCanyon", "LAT_CENTER": "34.49027665", "LON_CENTER": "-118.67136855"}, {"CITY": "Hawaiian Gardens", "ABBREV_NAME": "HawaiianGardens", "LAT_CENTER": "33.82999914", "LON_CENTER": "-118.07167706"}, {"CITY": "Hawthorne", "ABBREV_NAME": "Hawthorne", "LAT_CENTER": "33.913453692", "LON_CENTER": "-118.346226984"}, {"CITY": "Hermosa Beach", "ABBREV_NAME": "HermosaBeach", "LAT_CENTER": "33.86547062", "LON_CENTER": "-118.39758322"}, {"CITY": "Hidden Hills", "ABBREV_NAME": "HiddenHills", "LAT_CENTER": "34.1634592", "LON_CENTER": "-118.65644575"}, {"CITY": "Huntington Park", "ABBREV_NAME": "HuntingtonPark", "LAT_CENTER": "33.9811784714", "LON_CENTER": "-118.2165485333"}, {"CITY": "Industry", "ABBREV_NAME": "Industry", "LAT_CENTER": "34.0278339524", "LON_CENTER": "-117.9592529619"}, {"CITY": "Inglewood", "ABBREV_NAME": "Inglewood", "LAT_CENTER": "33.9522510765", "LON_CENTER": "-118.3455253235"}, {"CITY": "Irwindale", "ABBREV_NAME": "Irwindale", "LAT_CENTER": "34.1001267333", "LON_CENTER": "-117.9501102"}, {"CITY": "La Ca\u00f1ada Flintridge", "ABBREV_NAME": "LaCanadaFlintridge", "LAT_CENTER": "34.2107663091", "LON_CENTER": "-118.2116092273"}, {"CITY": "La Crescenta-Montrose", "ABBREV_NAME": "LaCrescenta-Montrose", "LAT_CENTER": "34.22612316", "LON_CENTER": "-118.23103012"}, {"CITY": "La Habra Heights", "ABBREV_NAME": "LaHabraHeights", "LAT_CENTER": "33.9706612286", "LON_CENTER": "-117.9458269429"}, {"CITY": "La Mirada", "ABBREV_NAME": "LaMirada", "LAT_CENTER": "33.9057546818", "LON_CENTER": "-118.0069173545"}, {"CITY": "La Puente", "ABBREV_NAME": "LaPuente", "LAT_CENTER": "34.0396293929", "LON_CENTER": "-117.9597639571"}, {"CITY": "La Verne", "ABBREV_NAME": "LaVerne", "LAT_CENTER": "34.11490161", "LON_CENTER": "-117.77465852"}, {"CITY": "Ladera Heights", "ABBREV_NAME": "LaderaHeights", "LAT_CENTER": "34.002343125", "LON_CENTER": "-118.37576035"}, {"CITY": "Lake Hughes", "ABBREV_NAME": "LakeHughes", "LAT_CENTER": "34.68976055", "LON_CENTER": "-118.58552375"}, {"CITY": "Lake Los Angeles", "ABBREV_NAME": "LakeLosAngeles", "LAT_CENTER": "34.6349885667", "LON_CENTER": "-117.8146715333"}, {"CITY": "Lakewood", "ABBREV_NAME": "Lakewood", "LAT_CENTER": "33.8474112208", "LON_CENTER": "-118.124755325"}, {"CITY": "Lancaster", "ABBREV_NAME": "Lancaster", "LAT_CENTER": "34.6856427914", "LON_CENTER": "-118.1496712343"}, {"CITY": "Lawndale", "ABBREV_NAME": "Lawndale", "LAT_CENTER": "33.8846231", "LON_CENTER": "-118.3521636143"}, {"CITY": "Lennox", "ABBREV_NAME": "Lennox", "LAT_CENTER": "33.9395661167", "LON_CENTER": "-118.3569131833"}, {"CITY": "Leona Valley", "ABBREV_NAME": "LeonaValley", "LAT_CENTER": "34.60605455", "LON_CENTER": "-118.28399645"}, {"CITY": "Littlerock", "ABBREV_NAME": "Littlerock", "LAT_CENTER": "34.524031", "LON_CENTER": "-117.9049081667"}, {"CITY": "Lomita", "ABBREV_NAME": "Lomita", "LAT_CENTER": "33.78582655", "LON_CENTER": "-118.31174675"}, {"CITY": "Long Beach", "ABBREV_NAME": "LongBeach", "LAT_CENTER": "33.8049414697", "LON_CENTER": "-118.1680716016"}, {"CITY": "Los Angeles", "ABBREV_NAME": "LosAngeles", "LAT_CENTER": "34.0903834337", "LON_CENTER": "-118.3664415728"}, {"CITY": "Lynwood", "ABBREV_NAME": "Lynwood", "LAT_CENTER": "33.9237153429", "LON_CENTER": "-118.20427875"}, {"CITY": "Malibu", "ABBREV_NAME": "Malibu", "LAT_CENTER": "34.0512078", "LON_CENTER": "-118.7367354"}, {"CITY": "Manhattan Beach", "ABBREV_NAME": "ManhattanBeach", "LAT_CENTER": "33.890589575", "LON_CENTER": "-118.4038159625"}, {"CITY": "Marina del Rey", "ABBREV_NAME": "MarinadelRey", "LAT_CENTER": "33.9736989", "LON_CENTER": "-118.45846595"}, {"CITY": "Mayflower Village", "ABBREV_NAME": "MayflowerVillage", "LAT_CENTER": "34.11841315", "LON_CENTER": "-118.00869305"}, {"CITY": "Maywood", "ABBREV_NAME": "Maywood", "LAT_CENTER": "33.9852838", "LON_CENTER": "-118.1842428"}, {"CITY": "Monrovia", "ABBREV_NAME": "Monrovia", "LAT_CENTER": "34.1397619636", "LON_CENTER": "-117.9985106182"}, {"CITY": "Montebello", "ABBREV_NAME": "Montebello", "LAT_CENTER": "34.0154281737", "LON_CENTER": "-118.1173956632"}, {"CITY": "Monterey Park", "ABBREV_NAME": "MontereyPark", "LAT_CENTER": "34.0530412733", "LON_CENTER": "-118.1303933333"}, {"CITY": "North El Monte", "ABBREV_NAME": "NorthElMonte", "LAT_CENTER": "34.1024524", "LON_CENTER": "-118.0204"}, {"CITY": "Norwalk", "ABBREV_NAME": "Norwalk", "LAT_CENTER": "33.9075624318", "LON_CENTER": "-118.0816448636"}, {"CITY": "Palmdale", "ABBREV_NAME": "Palmdale", "LAT_CENTER": "34.5781108595", "LON_CENTER": "-118.1067883405"}, {"CITY": "Palos Verdes Estates", "ABBREV_NAME": "PalosVerdesEstates", "LAT_CENTER": "33.78663", "LON_CENTER": "-118.396973775"}, {"CITY": "Paramount", "ABBREV_NAME": "Paramount", "LAT_CENTER": "33.8986569125", "LON_CENTER": "-118.1711776688"}, {"CITY": "Pasadena", "ABBREV_NAME": "Pasadena", "LAT_CENTER": "34.1554022628", "LON_CENTER": "-118.1383603488"}, {"CITY": "Pico Rivera", "ABBREV_NAME": "PicoRivera", "LAT_CENTER": "33.9908454682", "LON_CENTER": "-118.0833429591"}, {"CITY": "Pomona", "ABBREV_NAME": "Pomona", "LAT_CENTER": "34.059038427", "LON_CENTER": "-117.7641743135"}, {"CITY": "Quartz Hill", "ABBREV_NAME": "QuartzHill", "LAT_CENTER": "34.65549428", "LON_CENTER": "-118.20832146"}, {"CITY": "Rancho Palos Verdes", "ABBREV_NAME": "RanchoPalosVerdes", "LAT_CENTER": "33.7647578091", "LON_CENTER": "-118.3688016182"}, {"CITY": "Redondo Beach", "ABBREV_NAME": "RedondoBeach", "LAT_CENTER": "33.8547580357", "LON_CENTER": "-118.3777087071"}, {"CITY": "Rolling Hills (Los Angeles County)", "ABBREV_NAME": "RollingHills(LosAngelesCounty)", "LAT_CENTER": "33.7600211", "LON_CENTER": "-118.3471708"}, {"CITY": "Rolling Hills Estates", "ABBREV_NAME": "RollingHillsEstates", "LAT_CENTER": "33.771626975", "LON_CENTER": "-118.35985045"}, {"CITY": "Rose Hills", "ABBREV_NAME": "RoseHills", "LAT_CENTER": "34.0142722", "LON_CENTER": "-118.039504"}, {"CITY": "Rosemead", "ABBREV_NAME": "Rosemead", "LAT_CENTER": "34.0638736444", "LON_CENTER": "-118.0848762278"}, {"CITY": "Rowland Heights", "ABBREV_NAME": "RowlandHeights", "LAT_CENTER": "33.9810563143", "LON_CENTER": "-117.8946770071"}, {"CITY": "San Dimas", "ABBREV_NAME": "SanDimas", "LAT_CENTER": "34.1067606273", "LON_CENTER": "-117.8150026"}, {"CITY": "San Fernando", "ABBREV_NAME": "SanFernando", "LAT_CENTER": "34.288194875", "LON_CENTER": "-118.436848775"}, {"CITY": "San Gabriel", "ABBREV_NAME": "SanGabriel", "LAT_CENTER": "34.0990894929", "LON_CENTER": "-118.0992494286"}, {"CITY": "San Marino", "ABBREV_NAME": "SanMarino", "LAT_CENTER": "34.1235923167", "LON_CENTER": "-118.1190062333"}, {"CITY": "San Pasqual", "ABBREV_NAME": "SanPasqual", "LAT_CENTER": "34.1392184", "LON_CENTER": "-118.102517"}, {"CITY": "Santa Clarita", "ABBREV_NAME": "SantaClarita", "LAT_CENTER": "34.4291723537", "LON_CENTER": "-118.5002026722"}, {"CITY": "Santa Fe Springs", "ABBREV_NAME": "SantaFeSprings", "LAT_CENTER": "33.9404632", "LON_CENTER": "-118.0652564615"}, {"CITY": "Santa Monica", "ABBREV_NAME": "SantaMonica", "LAT_CENTER": "34.0169562381", "LON_CENTER": "-118.4827585333"}, {"CITY": "Sierra Madre", "ABBREV_NAME": "SierraMadre", "LAT_CENTER": "34.1684386", "LON_CENTER": "-118.05492705"}, {"CITY": "Signal Hill", "ABBREV_NAME": "SignalHill", "LAT_CENTER": "33.8065499667", "LON_CENTER": "-118.1667202167"}, {"CITY": "South El Monte", "ABBREV_NAME": "SouthElMonte", "LAT_CENTER": "34.0533549538", "LON_CENTER": "-118.0463452"}, {"CITY": "South Gate", "ABBREV_NAME": "SouthGate", "LAT_CENTER": "33.948297555", "LON_CENTER": "-118.203729035"}, {"CITY": "South Monrovia Island", "ABBREV_NAME": "SouthMonroviaIsland", "LAT_CENTER": "34.1297281", "LON_CENTER": "-117.9963303"}, {"CITY": "South Pasadena", "ABBREV_NAME": "SouthPasadena", "LAT_CENTER": "34.1104749", "LON_CENTER": "-118.1551070625"}, {"CITY": "South San Gabriel", "ABBREV_NAME": "SouthSanGabriel", "LAT_CENTER": "34.0466885333", "LON_CENTER": "-118.0913869"}, {"CITY": "South San Jose Hills", "ABBREV_NAME": "SouthSanJoseHills", "LAT_CENTER": "34.0116305286", "LON_CENTER": "-117.9037542429"}, {"CITY": "South Whittier", "ABBREV_NAME": "SouthWhittier", "LAT_CENTER": "33.9338540385", "LON_CENTER": "-118.0323136385"}, {"CITY": "Stevenson Ranch", "ABBREV_NAME": "StevensonRanch", "LAT_CENTER": "34.3841524", "LON_CENTER": "-118.6021749333"}, {"CITY": "Sun Village", "ABBREV_NAME": "SunVillage", "LAT_CENTER": "34.571990025", "LON_CENTER": "-117.96508125"}, {"CITY": "Temple City", "ABBREV_NAME": "TempleCity", "LAT_CENTER": "34.1043816833", "LON_CENTER": "-118.059676325"}, {"CITY": "Topanga", "ABBREV_NAME": "Topanga", "LAT_CENTER": "34.0908285667", "LON_CENTER": "-118.6171669333"}, {"CITY": "Torrance", "ABBREV_NAME": "Torrance", "LAT_CENTER": "33.8391150286", "LON_CENTER": "-118.3436529086"}, {"CITY": "Val Verde", "ABBREV_NAME": "ValVerde", "LAT_CENTER": "34.4444857", "LON_CENTER": "-118.6737987"}, {"CITY": "Valinda", "ABBREV_NAME": "Valinda", "LAT_CENTER": "34.0426803125", "LON_CENTER": "-117.9291777125"}, {"CITY": "Vernon", "ABBREV_NAME": "Vernon", "LAT_CENTER": "34.0046042", "LON_CENTER": "-118.1985240857"}, {"CITY": "View Park-Windsor Hills", "ABBREV_NAME": "ViewPark-WindsorHills", "LAT_CENTER": "33.99514885", "LON_CENTER": "-118.34728645"}, {"CITY": "Vincent", "ABBREV_NAME": "Vincent", "LAT_CENTER": "34.0958037625", "LON_CENTER": "-117.9222340125"}, {"CITY": "Walnut", "ABBREV_NAME": "Walnut", "LAT_CENTER": "34.0367279545", "LON_CENTER": "-117.8497468182"}, {"CITY": "Walnut Park", "ABBREV_NAME": "WalnutPark", "LAT_CENTER": "33.96798635", "LON_CENTER": "-118.222302125"}, {"CITY": "West Athens", "ABBREV_NAME": "WestAthens", "LAT_CENTER": "33.9235558667", "LON_CENTER": "-118.3055471333"}, {"CITY": "West Carson", "ABBREV_NAME": "WestCarson", "LAT_CENTER": "33.8235485", "LON_CENTER": "-118.293002925"}, {"CITY": "West Covina", "ABBREV_NAME": "WestCovina", "LAT_CENTER": "34.0524019182", "LON_CENTER": "-117.9144669758"}, {"CITY": "West Hollywood", "ABBREV_NAME": "WestHollywood", "LAT_CENTER": "34.0893449571", "LON_CENTER": "-118.3704843429"}, {"CITY": "West Puente Valley", "ABBREV_NAME": "WestPuenteValley", "LAT_CENTER": "34.0532745125", "LON_CENTER": "-117.9703036875"}, {"CITY": "West Rancho Dominguez", "ABBREV_NAME": "WestRanchoDominguez", "LAT_CENTER": "33.905935", "LON_CENTER": "-118.2639261714"}, {"CITY": "West Whittier-Los Nietos", "ABBREV_NAME": "WestWhittier-LosNietos", "LAT_CENTER": "33.9798040875", "LON_CENTER": "-118.064391525"}, {"CITY": "Westlake Village", "ABBREV_NAME": "WestlakeVillage", "LAT_CENTER": "34.143953175", "LON_CENTER": "-118.80225985"}, {"CITY": "Westmont", "ABBREV_NAME": "Westmont", "LAT_CENTER": "33.9390516125", "LON_CENTER": "-118.3024028375"}, {"CITY": "Whittier", "ABBREV_NAME": "Whittier", "LAT_CENTER": "33.9672426062", "LON_CENTER": "-118.02806185"}, {"CITY": "Willowbrook", "ABBREV_NAME": "Willowbrook", "LAT_CENTER": "33.9171031625", "LON_CENTER": "-118.2492142125"}]